SiteID,CCID,Name,Latitude,Longitude
DF,301,Duke Forest - Korstian Division,35.98299217,-79.01887264
ERSP,,,,
JMNP,197,Triangle Land Conservancy - Johnston Mill Nature Preserve,35.99585449,-79.05378535
NCBG,78,NC Botanical Garden,35.8994,-79.0339
NCSU,68,NC State University,35.78107172,-78.6754681
PR,77,Prairie Ridge Ecostation,35.8117,-78.7139
UNC,60,UNC Chapel Hill Campus,35.90987665,-79.04964402
