SiteID,CCID,Name,Latitude,Longitude,HOBOcode
DF,301,Duke Forest - Korstian Division,35.98299217,-79.01887264,10574880
ERSP,,,,,10517266
JMNP,197,Triangle Land Conservancy - Johnston Mill Nature Preserve,35.99585449,-79.05378535,10574881
NCBG,78,NC Botanical Garden,35.8994,-79.0339,10574871
NCSU,68,NC State University,35.78107172,-78.6754681,10517273
PR,77,Prairie Ridge Ecostation,35.8117,-78.7139,9729241
UNC,60,UNC Chapel Hill Campus,35.90987665,-79.04964402,10574867
